[
    {
        "name":"어뮤즈타운", 
        "address":"노량진역 3번 출구에서 301m", 
        "latitude":37.512765,
        "longitude":126.944949
    },
    {
        "name":"짱오락실 서울대입구점", 
        "address":"서울대입구역 3번 출구에서 107m", 
        "latitude":37.480471, 
        "longitude":126.951978
    },
    {
        "name":"수원역 짱오락실", 
        "address":"수원역 10번 출구", 
        "latitude":37.266399, 
        "longitude":127.001713
    },
    {
        "name":"펀시티 건대점", 
        "address":"건대입구역 1번 출구에서 162m", 
        "latitude":37.539794, 
        "longitude":127.070410
    },
    {
        "name":"범계게임천국", 
        "address":"범계역 1번 출구에서 60m", 
        "latitude":37.390380, 
        "longitude":126.952117
    },
    {
        "name":"수유 CGV 게임존", 
        "address":"수유역 8번 출구에서 555m", 
        "latitude":37.6423, 
        "longitude":127.03
    },
    {
        "name":"대왕게임장노래방", 
        "address":"수유역 8번 출구에서 540m", 
        "latitude":37.642074, 
        "longitude":127.028278
    }
  ]